{"type": "FeatureCollection", "features": [{"id": "09309600", "type": "Feature", "properties": {"25%": 0.04, "50%": 4.0, "75%": 11.9, "count": 9886.0, "county": "49039", "fin_date": "2022-05-08 00:00:00", "huc": "14060007", "latitude": 39.6674624, "longitude": -111.3121238, "max": 54.0, "mean": -1409.9614586283633, "min": -999999.0, "name": "FAIRVIEW TUNNEL NEAR FAIRVIEW, UT", "site_type": "ST", "start_date": "1967-10-01 00:00:00", "std": 37607.1317783088}, "geometry": {"type": "Point", "coordinates": [-111.3121238, 39.6674624]}}, {"id": "09309800", "type": "Feature", "properties": {"25%": 1.325, "50%": 2.0, "75%": 7.2, "count": 3194.0, "county": "49039", "fin_date": "1969-06-30 00:00:00", "huc": "14060007", "latitude": 39.674129, "longitude": -111.304901, "max": 171.0, "mean": 9.913177833437706, "min": 0.6, "name": "GOOSEBERRY CREEK NEAR FAIRVIEW, UTAH", "site_type": "ST", "start_date": "1959-10-01 00:00:00", "std": 21.32059617624887}, "geometry": {"type": "Point", "coordinates": [-111.304901, 39.674129]}}, {"id": "09310000", "type": "Feature", "properties": {"25%": 3.3, "50%": 5.0, "75%": 12.0, "count": 23562.0, "county": "49039", "fin_date": "2003-09-29 00:00:00", "huc": "14060007", "latitude": 39.7157951, "longitude": -111.3001788, "max": 509.0, "mean": 19.292711993888453, "min": 0.0, "name": "GOOSEBERRY CREEK NEAR SCOFIELD, UT", "site_type": "ST", "start_date": "1930-10-01 00:00:00", "std": 41.460176269247285}, "geometry": {"type": "Point", "coordinates": [-111.3001788, 39.7157951]}}, {"id": "09310500", "type": "Feature", "properties": {"25%": 8.0, "50%": 12.0, "75%": 27.0, "count": 30842.0, "county": "49007", "fin_date": "2022-05-08 00:00:00", "huc": "14060007", "latitude": 39.77440566, "longitude": -111.191006, "max": 1310.0, "mean": 46.10467706374459, "min": 0.78, "name": "FISH CREEK ABOVE RESERVOIR, NEAR SCOFIELD, UT", "site_type": "ST", "start_date": "1931-06-01 00:00:00", "std": 102.31204716518414}, "geometry": {"type": "Point", "coordinates": [-111.191006, 39.77440566]}}, {"id": "09310700", "type": "Feature", "properties": {"25%": 7.5, "50%": 11.5, "75%": 16.7, "count": 14516.0, "county": "49007", "fin_date": "2022-05-08 00:00:00", "huc": "14060007", "latitude": 39.7216289, "longitude": -111.1612827, "max": 300.0, "mean": 17.267865803251567, "min": 1.6, "name": "MUD CRK BL WINTER QUARTERS CYN @ SCOFIELD, UT", "site_type": "ST", "start_date": "1978-08-22 00:00:00", "std": 23.106400960298856}, "geometry": {"type": "Point", "coordinates": [-111.1612827, 39.7216289]}}, {"id": "09311500", "type": "Feature", "properties": {"25%": 2.0, "50%": 16.0, "75%": 111.0, "count": 14078.0, "county": "49007", "fin_date": "1980-10-16 00:00:00", "huc": "14060007", "latitude": 39.78690558, "longitude": -111.1201697, "max": 1060.0, "mean": 65.51754510583824, "min": 0.0, "name": "PRICE RIVER NEAR SCOFIELD, UTAH", "site_type": "ST", "start_date": "1917-11-17 00:00:00", "std": 100.15175281959145}, "geometry": {"type": "Point", "coordinates": [-111.1201697, 39.78690558]}}, {"id": "09312700", "type": "Feature", "properties": {"25%": 0.22, "50%": 1.3, "75%": 2.87, "count": 10595.0, "county": "49049", "fin_date": "1989-10-03 00:00:00", "huc": "14060007", "latitude": 39.8305162, "longitude": -110.9693302, "max": 188.0, "mean": 4.5595394053798195, "min": 0.0, "name": "BEAVER CREEK NEAR SOLDIER SUMMIT, UTAH", "site_type": "ST", "start_date": "1960-10-01 00:00:00", "std": 11.784711536195731}, "geometry": {"type": "Point", "coordinates": [-110.9693302, 39.8305162]}}, {"id": "09313000", "type": "Feature", "properties": {"25%": 14.0, "50%": 50.0, "75%": 162.0, "count": 18418.0, "county": "49007", "fin_date": "2003-09-29 00:00:00", "huc": "14060007", "latitude": 39.71885199, "longitude": -110.8659946, "max": 2040.0, "mean": 107.43462916711917, "min": 0.9, "name": "PRICE RIVER NEAR HEINER, UTAH", "site_type": "ST", "start_date": "1934-06-01 00:00:00", "std": 148.67958982215978}, "geometry": {"type": "Point", "coordinates": [-110.8659946, 39.71885199]}}, {"id": "09317000", "type": "Feature", "properties": {"25%": 1.0, "50%": 1.1, "75%": 3.0, "count": 3720.0, "county": "49039", "fin_date": "1949-09-29 00:00:00", "huc": "14060009", "latitude": 39.6332965, "longitude": -111.2673981, "max": 60.0, "mean": 3.937634408602169, "min": 0.4, "name": "BOULGER CREEK NEAR FAIRVIEW, UTAH", "site_type": "ST", "start_date": "1938-05-27 00:00:00", "std": 6.793823634442194}, "geometry": {"type": "Point", "coordinates": [-111.2673981, 39.6332965]}}, {"id": "09317919", "type": "Feature", "properties": {"25%": 0.61, "50%": 1.5, "75%": 4.9, "count": 1509.0, "county": "49015", "fin_date": "1984-09-29 00:00:00", "huc": "14060009", "latitude": 39.4632993, "longitude": -111.1490597, "max": 88.0, "mean": 5.354387011265732, "min": 0.0, "name": "CRANDALL CANYON AT MOUTH NR HUNTINGTON, UT", "site_type": "ST", "start_date": "1977-10-20 00:00:00", "std": 10.296504749268776}, "geometry": {"type": "Point", "coordinates": [-111.1490597, 39.4632993]}}, {"id": "09317920", "type": "Feature", "properties": {"25%": 0.51, "50%": 0.66, "75%": 1.3, "count": 945.0, "county": "49015", "fin_date": "1981-10-07 00:00:00", "huc": "14060009", "latitude": 39.45857719, "longitude": -111.137115, "max": 29.0, "mean": 2.429629629629623, "min": 0.0, "name": "TIE FORK CANYON NEAR HUNTINGTON, UTAH", "site_type": "ST", "start_date": "1977-10-20 00:00:00", "std": 5.086530627504857}, "geometry": {"type": "Point", "coordinates": [-111.137115, 39.45857719]}}, {"id": "09317997", "type": "Feature", "properties": {"25%": 24.0, "50%": 47.0, "75%": 91.0, "count": 8427.0, "county": "49015", "fin_date": "2006-09-29 00:00:00", "huc": "14060009", "latitude": 39.3852446, "longitude": -111.0882249, "max": 847.0, "mean": 74.58852497923341, "min": 4.0, "name": "HUNTINGTON CREEK NEAR HUNTINGTON, UT", "site_type": "ST", "start_date": "1979-04-25 00:00:00", "std": 86.65520518612375}, "geometry": {"type": "Point", "coordinates": [-111.0882249, 39.3852446]}}, {"id": "09318000", "type": "Feature", "properties": {"25%": 30.0, "50%": 44.0, "75%": 122.0, "count": 21876.0, "county": "49015", "fin_date": "1979-10-04 00:00:00", "huc": "14060009", "latitude": 39.37135608, "longitude": -111.0637799, "max": 1310.0, "mean": 105.39637045163654, "min": 1.2, "name": "HUNTINGTON CREEK NR HUNTINGTON, UTAH", "site_type": "ST", "start_date": "1909-05-03 00:00:00", "std": 145.7070235784233}, "geometry": {"type": "Point", "coordinates": [-111.0637799, 39.37135608]}}, {"id": "09318500", "type": "Feature", "properties": {"25%": 15.0, "50%": 28.0, "75%": 47.0, "count": 2723.0, "county": "49015", "fin_date": "1921-08-13 00:00:00", "huc": "14060009", "latitude": 39.2083045, "longitude": -110.9173887, "max": 903.0, "mean": 73.3007712082262, "min": 2.6, "name": "HUNTINGTON CREEK NEAR CASTLE DALE, UTAH", "site_type": "ST", "start_date": "1911-06-26 00:00:00", "std": 132.86031234631346}, "geometry": {"type": "Point", "coordinates": [-110.9173887, 39.2083045]}}, {"id": "09319000", "type": "Feature", "properties": {"25%": 0.09, "50%": 0.38, "75%": 5.8, "count": 12639.0, "county": "49039", "fin_date": "2022-05-08 00:00:00", "huc": "14060009", "latitude": 39.3296855, "longitude": -111.4315745, "max": 112.0, "mean": -9566.121011155947, "min": -999999.0, "name": "EPHRAIM TUNNEL NEAR EPHRAIM, UT", "site_type": "ST", "start_date": "1960-10-01 00:00:00", "std": 97379.47924551161}, "geometry": {"type": "Point", "coordinates": [-111.4315745, 39.3296855]}}, {"id": "09323000", "type": "Feature", "properties": {"25%": 0.4, "50%": 1.5, "75%": 5.1, "count": 9181.0, "county": "49039", "fin_date": "2003-09-29 00:00:00", "huc": "16030004", "latitude": 39.4260752, "longitude": -111.3649034, "max": 72.0, "mean": 4.825796754166219, "min": 0.0, "name": "SPRING CITY TUNNEL NEAR SPRING CITY, UT", "site_type": "ST", "start_date": "1960-10-01 00:00:00", "std": 8.028229053264003}, "geometry": {"type": "Point", "coordinates": [-111.3649034, 39.4260752]}}, {"id": "09324000", "type": "Feature", "properties": {"25%": 19.0, "50%": 26.0, "75%": 57.75, "count": 1482.0, "county": "49015", "fin_date": "1957-09-29 00:00:00", "huc": "14060009", "latitude": 39.2832979, "longitude": -111.2673951, "max": 1290.0, "mean": 78.67206477732793, "min": 14.0, "name": "SEELY CREEK NEAR ORANGEVILLE, UTAH", "site_type": "ST", "start_date": "1953-09-09 00:00:00", "std": 155.70378355396346}, "geometry": {"type": "Point", "coordinates": [-111.2673951, 39.2832979]}}, {"id": "09324200", "type": "Feature", "properties": {"25%": 0.32, "50%": 0.49, "75%": 1.1, "count": 1169.0, "county": "49015", "fin_date": "1981-10-07 00:00:00", "huc": "14060009", "latitude": 39.307188, "longitude": -111.1846153, "max": 22.0, "mean": 1.2060650128314803, "min": 0.14, "name": "CTNWD C AB STRAIGHT CANYON NR ORANGEVILLE, UT", "site_type": "ST", "start_date": "1977-10-01 00:00:00", "std": 2.098165926718784}, "geometry": {"type": "Point", "coordinates": [-111.1846153, 39.307188]}}, {"id": "09324500", "type": "Feature", "properties": {"25%": 20.0, "50%": 32.0, "75%": 98.0, "count": 24031.0, "county": "49015", "fin_date": "1984-11-15 00:00:00", "huc": "14060009", "latitude": 39.26663339, "longitude": -111.1298922, "max": 2000.0, "mean": 104.23495484998554, "min": 3.0, "name": "COTTONWOOD CREEK NEAR ORANGEVILLE, UTAH", "site_type": "ST", "start_date": "1909-05-01 00:00:00", "std": 185.4584489660175}, "geometry": {"type": "Point", "coordinates": [-111.1298922, 39.26663339]}}, {"id": "09325000", "type": "Feature", "properties": {"25%": 8.0, "50%": 12.0, "75%": 22.0, "count": 4109.0, "county": "49015", "fin_date": "1958-09-29 00:00:00", "huc": "14060009", "latitude": 39.16997188, "longitude": -110.9382224, "max": 1450.0, "mean": 54.07958140666843, "min": 0.0, "name": "COTTONWOOD CREEK NEAR CASTLE DALE, UTAH", "site_type": "ST", "start_date": "1947-07-01 00:00:00", "std": 148.15809958440795}, "geometry": {"type": "Point", "coordinates": [-110.9382224, 39.16997188]}}, {"id": "09325100", "type": "Feature", "properties": {"25%": 28.0, "50%": 45.5, "75%": 76.25, "count": 2204.0, "county": "49015", "fin_date": "1970-10-13 00:00:00", "huc": "14060009", "latitude": 39.14997269, "longitude": -110.909055, "max": 1500.0, "mean": 95.79237749546277, "min": 5.7, "name": "SAN RAFAEL R ABOVE FERRON CR NR CASTLE DALE, UT", "site_type": "ST", "start_date": "1964-10-01 00:00:00", "std": 162.82771547246963}, "geometry": {"type": "Point", "coordinates": [-110.909055, 39.14997269]}}, {"id": "09326500", "type": "Feature", "properties": {"25%": 10.1, "50%": 17.5, "75%": 52.6, "count": 31632.0, "county": "49015", "fin_date": "2022-05-08 00:00:00", "huc": "14060009", "latitude": 39.10413724, "longitude": -111.2165589, "max": 1240.0, "mean": 63.66237860394568, "min": 1.0, "name": "FERRON CREEK (UPPER STATION) NEAR FERRON, UT", "site_type": "ST", "start_date": "1911-10-01 00:00:00", "std": 115.16835251164754}, "geometry": {"type": "Point", "coordinates": [-111.2165589, 39.10413724]}}, {"id": "09327500", "type": "Feature", "properties": {"25%": 5.4, "50%": 9.6, "75%": 16.0, "count": 5051.0, "county": "49015", "fin_date": "1958-09-29 00:00:00", "huc": "14060009", "latitude": 39.1055281, "longitude": -111.0243349, "max": 938.0, "mean": 34.605622648980365, "min": 0.0, "name": "FERRON CREEK NEAR CASTLE DALE, UT", "site_type": "ST", "start_date": "1911-10-01 00:00:00", "std": 87.56501996148234}, "geometry": {"type": "Point", "coordinates": [-111.0243349, 39.1055281]}}, {"id": "09327550", "type": "Feature", "properties": {"25%": 6.6, "50%": 11.0, "75%": 21.0, "count": 4018.0, "county": "49015", "fin_date": "1986-09-30 00:00:00", "huc": "14060009", "latitude": 39.11913926, "longitude": -110.9896123, "max": 2000.0, "mean": 59.846856645097084, "min": 0.0, "name": "FERRON CREEK BL PARADISE RANCH NR CLAWSON, UT", "site_type": "ST", "start_date": "1975-10-01 00:00:00", "std": 205.18223238327724}, "geometry": {"type": "Point", "coordinates": [-110.9896123, 39.11913926]}}, {"id": "09330500", "type": "Feature", "properties": {"25%": 9.1, "50%": 16.0, "75%": 43.0, "count": 27907.0, "county": "49015", "fin_date": "2022-05-08 00:00:00", "huc": "14070002", "latitude": 38.99105556, "longitude": -111.253886, "max": 664.0, "mean": 37.65737413552167, "min": 0.0, "name": "MUDDY CREEK NEAR EMERY, UT", "site_type": "ST", "start_date": "1910-10-01 00:00:00", "std": 52.52432920884895}, "geometry": {"type": "Point", "coordinates": [-111.253886, 38.99105556]}}, {"id": "09331900", "type": "Feature", "properties": {"25%": 2.4, "50%": 4.6, "75%": 8.1, "count": 1189.0, "county": "49015", "fin_date": "1981-10-01 00:00:00", "huc": "14070002", "latitude": 38.8591422, "longitude": -111.2621149, "max": 442.0, "mean": 7.91202691337258, "min": 0.16, "name": "QUITCHUPAH CREEK NEAR EMERY, UTAH", "site_type": "ST", "start_date": "1978-07-01 00:00:00", "std": 20.622398005753187}, "geometry": {"type": "Point", "coordinates": [-111.2621149, 38.8591422]}}, {"id": "09331950", "type": "Feature", "properties": {"25%": 0.98, "50%": 2.1, "75%": 5.0, "count": 2252.0, "county": "49015", "fin_date": "1984-09-29 00:00:00", "huc": "14070002", "latitude": 38.8613646, "longitude": -111.2526699, "max": 84.0, "mean": 3.8847335701598564, "min": 0.29, "name": "CHRISTIANSEN WASH NEAR EMERY, UTAH", "site_type": "ST", "start_date": "1978-08-01 00:00:00", "std": 4.852479026799333}, "geometry": {"type": "Point", "coordinates": [-111.2526699, 38.8613646]}}, {"id": "09332100", "type": "Feature", "properties": {"25%": 5.4, "50%": 13.0, "75%": 29.0, "count": 5496.0, "county": "49015", "fin_date": "2006-09-29 00:00:00", "huc": "14070002", "latitude": 38.8125833, "longitude": -111.20025, "max": 650.0, "mean": 32.027438136826774, "min": 0.0, "name": "MUDDY CREEK BL I-70 NR EMERY, UTAH", "site_type": "ST", "start_date": "1973-08-05 00:00:00", "std": 56.8932689918936}, "geometry": {"type": "Point", "coordinates": [-111.20025, 38.8125833]}}, {"id": "10148500", "type": "Feature", "properties": {"25%": 38.9, "50%": 52.3, "75%": 83.0, "count": 21822.0, "county": "49049", "fin_date": "1974-09-29 00:00:00", "huc": "16020202", "latitude": 39.9994002, "longitude": -111.4993557, "max": 1690.0, "mean": 88.95045825313898, "min": 10.0, "name": "SPANISH FORK AT THISTLE, UTAH", "site_type": "ST", "start_date": "1908-01-01 00:00:00", "std": 113.76547780727932}, "geometry": {"type": "Point", "coordinates": [-111.4993557, 39.9994002]}}, {"id": "10205030", "type": "Feature", "properties": {"25%": 6.2, "50%": 8.8, "75%": 14.0, "count": 21405.0, "county": "49041", "fin_date": "2022-05-08 00:00:00", "huc": "16030003", "latitude": 38.9119141, "longitude": -111.5304654, "max": 434.0, "mean": -1852.7490469516476, "min": -999999.0, "name": "SALINA CREEK NEAR EMERY, UT", "site_type": "ST", "start_date": "1963-10-01 00:00:00", "std": 43189.97469633311}, "geometry": {"type": "Point", "coordinates": [-111.5304654, 38.9119141]}}, {"id": "10206000", "type": "Feature", "properties": {"25%": 1.4, "50%": 9.0, "75%": 20.0, "count": 18907.0, "county": "49041", "fin_date": "1995-09-30 00:00:00", "huc": "16030003", "latitude": 38.95662956, "longitude": -111.8668697, "max": 1620.0, "mean": 27.829186015761483, "min": 0.0, "name": "SALINA CREEK AT SALINA, UT", "site_type": "ST", "start_date": "1914-04-25 00:00:00", "std": 79.57116110815598}, "geometry": {"type": "Point", "coordinates": [-111.8668697, 38.95662956]}}, {"id": "10206001", "type": "Feature", "properties": {"25%": 33.0, "50%": 94.0, "75%": 152.0, "count": 13877.0, "county": "49041", "fin_date": "1986-09-29 00:00:00", "huc": "16030003", "latitude": 38.96551807, "longitude": -111.8815927, "max": 3150.0, "mean": 144.49542768609908, "min": 0.3, "name": "SEVIER RIVER BELOW SALINA CREEK NEAR SALINA, UT", "site_type": "ST", "start_date": "1943-10-01 00:00:00", "std": 228.37861594219683}, "geometry": {"type": "Point", "coordinates": [-111.8815927, 38.96551807]}}, {"id": "10208500", "type": "Feature", "properties": {"25%": 2.4, "50%": 3.2, "75%": 6.2, "count": 9130.0, "county": "49039", "fin_date": "1989-09-29 00:00:00", "huc": "16030004", "latitude": 39.67385065, "longitude": -111.4090753, "max": 410.0, "mean": 12.318882803943021, "min": 0.0, "name": "OAK CREEK NR. FAIRVIEW, UTAH", "site_type": "ST", "start_date": "1964-10-01 00:00:00", "std": 28.823029571773432}, "geometry": {"type": "Point", "coordinates": [-111.4090753, 39.67385065]}}, {"id": "10210000", "type": "Feature", "properties": {"25%": 8.7, "50%": 10.0, "75%": 14.0, "count": 7669.0, "county": "49039", "fin_date": "1975-09-29 00:00:00", "huc": "16030004", "latitude": 39.5430191, "longitude": -111.3840722, "max": 273.0, "mean": 17.69539705307056, "min": 5.8, "name": "PLEASANT CREEK NEAR MOUNT PLEASANT, UTAH", "site_type": "ST", "start_date": "1954-10-01 00:00:00", "std": 20.788463943103995}, "geometry": {"type": "Point", "coordinates": [-111.3840722, 39.5430191]}}, {"id": "10211000", "type": "Feature", "properties": {"25%": 4.2, "50%": 4.9, "75%": 7.2, "count": 4382.0, "county": "49039", "fin_date": "1966-09-29 00:00:00", "huc": "16030004", "latitude": 39.49163054, "longitude": -111.4076844, "max": 106.0, "mean": 8.372250114103133, "min": 3.1, "name": "TWIN CREEK NEAR MOUNT PLEASANT, UTAH", "site_type": "ST", "start_date": "1954-10-01 00:00:00", "std": 9.616882999417458}, "geometry": {"type": "Point", "coordinates": [-111.4076844, 39.49163054]}}, {"id": "10215700", "type": "Feature", "properties": {"25%": 3.7, "50%": 5.1, "75%": 8.6, "count": 9233.0, "county": "49039", "fin_date": "1994-09-30 00:00:00", "huc": "16030004", "latitude": 39.44774139, "longitude": -111.4254632, "max": 145.0, "mean": 10.851118812953597, "min": 1.9, "name": "OAK CREEK NEAR SPRING CITY, UT", "site_type": "ST", "start_date": "1964-10-01 00:00:00", "std": 15.753110336134215}, "geometry": {"type": "Point", "coordinates": [-111.4254632, 39.44774139]}}, {"id": "10215900", "type": "Feature", "properties": {"25%": 4.9, "50%": 7.6, "75%": 21.0, "count": 19576.0, "county": "49039", "fin_date": "2022-05-08 00:00:00", "huc": "16030004", "latitude": 39.25912877, "longitude": -111.579916, "max": 547.0, "mean": -995.0972691050264, "min": -999999.0, "name": "MANTI CREEK BLW DUGWAY CREEK, NR MANTI, UT", "site_type": "ST", "start_date": "1964-10-01 00:00:00", "std": 31948.744805356695}, "geometry": {"type": "Point", "coordinates": [-111.579916, 39.25912877]}}, {"id": "10216210", "type": "Feature", "properties": {"25%": 0.01, "50%": 15.0, "75%": 76.0, "count": 5843.0, "county": "49039", "fin_date": "1980-09-29 00:00:00", "huc": "16030004", "latitude": 39.20551736, "longitude": -111.7110319, "max": 512.0, "mean": 44.957542358377445, "min": 0.0, "name": "SAN PITCH RIVER NEAR STERLING, UTAH", "site_type": "ST", "start_date": "1964-10-01 00:00:00", "std": 62.18777786401236}, "geometry": {"type": "Point", "coordinates": [-111.7110319, 39.20551736]}}, {"id": "10216400", "type": "Feature", "properties": {"25%": 9.0, "50%": 14.0, "75%": 31.0, "count": 7670.0, "county": "49039", "fin_date": "1980-09-29 00:00:00", "huc": "16030004", "latitude": 39.10051924, "longitude": -111.6463063, "max": 328.0, "mean": 30.94714471968703, "min": 2.5, "name": "TWELVEMILE CREEK NEAR MAYFIELD, UTAH", "site_type": "ST", "start_date": "1959-10-01 00:00:00", "std": 42.08118310021107}, "geometry": {"type": "Point", "coordinates": [-111.6463063, 39.10051924]}}, {"id": "10217000", "type": "Feature", "properties": {"25%": 97.0, "50%": 183.0, "75%": 279.0, "count": 38205.0, "county": "49039", "fin_date": "2022-05-08 00:00:00", "huc": "16030003", "latitude": 39.1552387, "longitude": -111.877705, "max": 5400.0, "mean": 249.11030153121413, "min": 6.0, "name": "SEVIER RIV BLW SAN PITCH RIV NR GUNNISON, UT", "site_type": "ST", "start_date": "1917-10-01 00:00:00", "std": 319.8304034609919}, "geometry": {"type": "Point", "coordinates": [-111.877705, 39.1552387]}}]}